bridgeName,lon,lat
石牌橋(壓力箱涵),121.5192586,25.10385277
新環河高架,121.4983381,25.04217233
承德橋,121.5210393,25.07763134
百齡橋,121.5136028,25.08913394
復興橋,121.537005,25.10011346
建德橋,121.5174892,25.10001155
婆婆橋,121.551597,25.10003381
勝利橋,121.5531204,25.10220105
至善橋,121.5570965,25.1034715
內雙溪橋,121.5616413,25.11220103
碧溪橋,121.5742896,25.1161635
礁坑一號橋,121.5783141,25.11972185
礁坑橋,121.5783465,25.119555
聖人橋,121.5879381,25.12469052
建民橋,121.5209857,25.10630613
東華橋,121.5212143,25.10671842
車登腳橋,121.5869725,25.13206707
天母橋,121.52541,25.113745
竹篙領橋,121.567907,25.14461346
菁礐橋,121.5712412,25.13993281
新安橋,121.5546685,25.12056603
莊頂路橋,121.551404,25.11125547
永三橋,121.5509785,25.11374529
永公橋,121.5510324,25.11367043
新園橋,121.55046,25.1513989
自強橋(右),121.5488326,25.09511635
望星橋,121.5427159,25.09721367
居安橋,121.5552822,25.12121201
礁坑二號橋,121.5777755,25.12262786
啟岳橋,121.5750574,25.18003822
至善二號橋,121.561722,25.1115135
山和橋,121.5337004,25.12464473
東和橋,121.5336158,25.1225424
天和橋,121.5343462,25.1190593
雨聲橋,121.529875,25.10051
內雙溪二號橋,121.5615907,25.11215821
士林橋,121.5235426,25.09901985
長安橋,121.5791492,25.17896304
新園一號橋,121.5508317,25.15076472
百拉卡橋,121.53958,25.18138
大師橋,121.512343,25.136811
至善路棧道橋-4,121.5831725,25.1191915
至善路棧道橋-5,121.584683,25.120118
至善路棧道橋-3,121.5597145,25.1122855
南深路棧道橋（6號橋）,121.624445,25.023575
南深路棧道橋（7號橋）,121.6230066,25.0210623
南深路棧道橋（8號橋）,121.6222237,25.0197646
南深路棧道橋（9號橋）,121.6228763,25.01916975
南深路棧道橋（10號橋）,121.6232102,25.0190425
至善路棧道橋-1,121.557448,25.107315
新園二號橋,121.5544601,25.15132791
新園三號橋,121.555715,25.15176
洲美高架橋(跨越基隆河段),121.4977581,25.09792605
雙溪橋,121.5130881,25.09843727
雨農橋,121.5327855,25.10079134
文昌橋,121.5201347,25.09937853
迪化橋,121.5081229,25.0798104
磺溪橋,121.5240499,25.11867505
自強橋(左),121.5484713,25.09497964
外雙溪橋,121.5590077,25.11189683
福林橋,121.5266233,25.10045146
重陽橋引道,121.5079294,25.08650442
劍南橋,121.5576987,25.10770903
至善路棧道橋-2,121.5574959,25.11056609
福壽橋,121.549364,25.1463644
慶昌橋,121.5136099,25.07637379
台北橋引道,121.51194,25.06327
市民大道高架橋(匝道EC),121.5072325,25.05066724
市民大道高架橋(匝道ED),121.5082665,25.050214
市民大道高架橋(匝道A),121.5088725,25.05042272
市民大道高架橋(匝道B),121.516497,25.048769
市民大道高架橋(匝道D),121.5413379,25.04464361
市民大道高架橋(匝道U),121.5052795,25.04887805
八德橋,121.5340345,25.044677
信義路八號橋,121.556707,25.032162
辛亥高架,121.5335738,25.02241656
建國高架橋,121.5366902,25.04666406
基隆路高架,121.5408615,25.0151345
市民大道高架橋(匝道E),121.5543665,25.044526
惠通橋(拱形),121.5277096,25.05205945
松烏橋,121.534423,25.07025802
濱江一號橋,121.5339562,25.07156502
濱江二號橋,121.5336918,25.07357896
濱江橋,121.5279146,25.07071342
民族橋,121.5278575,25.0683302
錦州橋,121.5274785,25.06030593
民生橋,121.5275746,25.05801468
長安橋,121.5296146,25.04828369
民權橋,121.5277231,25.062629
長春橋,121.5275287,25.05494872
濱江跨越橋N,121.543505,25.0724474
大直橋,121.5443576,25.07575649
中山橋,121.5248645,25.073865
濱江跨越橋S,121.5434922,25.07227216
中正橋,121.5160795,25.0199673
永福橋,121.5271936,25.01075153
福和橋,121.5307625,25.0079315
新生高架,121.5271609,25.06046327
市民大道高架橋(匝道C),121.5284635,25.0467135
正義橋,121.5909362,25.0621316
康忠橋,121.6204662,25.07324128
坡內一號橋,121.6022085,25.0839664
安康橋,121.5968117,25.06218548
坡內二號橋,121.6021113,25.08445709
麗水橋,121.6207224,25.09161913
景福橋,121.6167575,25.09567814
康樂橋,121.6177222,25.0944747
汐湖二橋,121.6180551,25.06636907
康樂橋,121.6167894,25.07849729
安泰橋,121.6147515,25.07799266
大湖橋,121.6083129,25.08143268
西川橋,121.560409,25.08684494
環東高架橋(匝道A),121.5763721,25.05443304
環東高架橋(匝道B),121.5845904,25.0588684
環東高架橋(匝道C),121.5735604,25.05767397
麥帥二橋(匝道1),121.5729395,25.05838002
麥帥二橋(匝道4),121.5734756,25.05649106
道南橋,121.5723325,24.987884
新景美溪橋引道,121.544445,24.9867045
東山橋,121.5610755,24.9744435
泉小橋,121.561702,24.9746575
老芋橋,121.562766,24.973473
混元橋,121.5680995,24.978231
指三橋,121.5790115,24.983927
玉惜橋,121.57985,24.982811
魚衡仔橋,121.5937915,24.99623
北實橋,121.57987,24.985429
北政橋,121.5793545,24.985273
老泉橋,121.559181,24.97635
文和橋,121.5954215,25.0016055
恒光橋,121.567484,24.980828
木棧便橋(自行車道),121.571751,24.9878305
水源高架,121.5328951,25.00855438
寶橋,121.5532575,24.979793
北新橋,121.539726,24.987963
萬福橋,121.5840335,25.001941
萬壽橋,121.572093,24.991613
一壽橋,121.5559875,24.97648
景美橋,121.5408045,24.9878545
馬槽橋,121.5637158,25.17798625
貴二橋,121.487055,25.12537004
貴三橋,121.4874787,25.12681088
貴四橋,121.4881343,25.12913492
明德橋,121.5223675,25.1094171
隱潭橋,121.540453,25.15656668
貴五橋,121.48859,25.130705
貴六橋（自訂）,121.4889193,25.13190057
貴七橋,121.4897613,25.13479443
明儀橋,121.4905466,25.13712901
磺捷橋,121.4908223,25.13770133
中稻橋,121.4912983,25.13853943
永和橋,121.526403,25.12334564
朝籟橋,121.5006789,25.12030085
鎮安橋,121.5021584,25.12374735
稻重橋,121.4897584,25.14007939
秀山橋（自訂）,121.4924758,25.14499565
中秀橋,121.4928664,25.14581822
秀水橋,121.4931406,25.14718789
秀磨橋,121.4937717,25.14798772
豆豆橋,121.494432,25.149752
秀溪橋,121.4920332,25.14876051
正覺橋,121.4913141,25.15063633
馨園橋,121.4909887,25.15140775
秀秀橋,121.4905808,25.15276029
大貴橋,121.4725036,25.1228045
大子橋,121.4744161,25.12264792
大坑橋,121.4920507,25.1215976
磺港溪四號橋,121.5028675,25.12410339
磺港溪三號橋,121.5029784,25.12514876
三合橋,121.5034437,25.126719
中和橋,121.5019153,25.1389024
鼎興橋,121.5547463,25.12086424
鄭厝橋,121.5716592,25.137915
鼎筆橋,121.5327774,25.15174289
復長橋,121.5031568,25.14323577
艦岩橋,121.5241312,25.1234452
健行橋,121.5119774,25.12035945
青簾橋,121.521331,25.14377506
清溪橋,121.5056126,25.14122996
中業橋,121.4957267,25.14506842
行義橋,121.5249532,25.14631314
名勝橋,121.5122751,25.13903561
雷隱橋,121.532984,25.16067986
徐公橋,121.495354,25.14598726
挹翠橋,121.5102384,25.14165395
土地公埔橋,121.5004,25.126355
紗帽橋,121.5338018,25.14878767
北投大屯橋,121.504454,25.14034122
福菱橋,121.4943668,25.1464657
峰頂橋,121.5357252,25.16057062
映竹橋,121.5227351,25.14939631
風溪橋,121.5230373,25.15047306
立農橋,121.5055614,25.12028111
西立橋,121.5055768,25.1202688
磺港溪二號橋,121.5031093,25.12828464
磺港溪一號橋,121.5033331,25.12933056
延壽橋,121.5037698,25.12997125
大公橋,121.5044845,25.13110879
新市橋,121.5028655,25.13303911
磺港橋,121.5009077,25.13628556
吉林橋,121.50133,25.137675
大度高架橋,121.467074,25.12321869
一德橋,121.4683947,25.13220488
光明橋,121.5025531,25.13581124
西安橋,121.5013207,25.12333584
石窟橋,121.5242551,25.12367168
公館橋,121.5080882,25.12653654
丹鳳橋,121.50948,25.126555
杏林一號橋,121.4992338,25.14078981
杏林二號橋,121.4982998,25.14225645
杏林四號橋,121.4961902,25.14336643
湯元橋,121.5109389,25.13738688
農機便橋,121.475487,25.132661
舊雙溪橋,121.4989505,25.11054885
杏林三號橋,121.4970755,25.14260051
水閘橋,121.4646507,25.11743511
文化橋,121.4983954,25.13763102
奇岩便橋,121.5016703,25.12364837
泉源一號橋,121.5235308,25.14596267
奇岩橋,121.5128311,25.12662073
水磨一號橋,121.4939056,25.15178473
水磨二號橋,121.4940707,25.15129539
永欣橋,121.5226315,25.12292883
東行義橋,121.530534,25.13178369
北投橋,121.50193,25.133512
開勝橋,121.5028811,25.14090725
銀星橋,121.5105501,25.13699248
無名橋185,121.5031238,25.14323841
無名橋106,121.5030728,25.14040465
小油坑橋,121.5443548,25.17610666
社子大橋,121.4977323,25.11160584
七星橋,121.5041839,25.13635346
中央北路四段棧橋,121.4662344,25.12682657
堉琪橋,121.5314854,25.12801098
麥帥二橋,121.5716214,25.05616699
玉成橋,121.5796657,25.05038638
松山橋,121.5800404,25.05150136
民權大橋,121.571856,25.06481489
麥帥一橋,121.5727126,25.05246205
正氣橋1(基隆路段-南向一),121.5689284,25.04860083
正氣橋2(基隆路段-北向),121.5681575,25.04729024
麥帥二橋(匝道2),121.5692332,25.05479142
麥帥二橋(匝道3),121.5703504,25.05376221
市民大道高架橋(主橋),121.5383205,25.0477365
信義聯絡高架(一),121.5724037,25.03260449
無名橋140,121.568801,25.0268295
無名橋166,121.571293,25.0242335
無名橋139,121.5685935,25.0271955
信義聯絡高架(二),121.5774996,25.02197695
信義聯絡高架(三),121.5771251,25.02198665
信義西大排,121.573005,25.0215705
市民大道高架橋(匝道F),121.559163,25.045637
市民大道高架橋(匝道H),121.566762,25.0453625
南港橋,121.6207814,25.05487636
南究橋,121.6122927,25.04633593
力行橋,121.6169832,25.05163257
弘道橋,121.6165027,25.04877005
顯應橋,121.6155987,25.04550688
福山橋,121.6176151,25.04610874
國興橋,121.6192266,25.04328217
合順橋,121.619496,25.0430665
宜興橋,121.6208679,25.0412079
舊莊橋,121.6228106,25.03984187
永庭橋,121.6239953,25.03888664
芳園橋,121.6249457,25.03772388
南深橋,121.6158418,25.04899878
南研橋,121.6141301,25.04889514
勤力橋,121.6122695,25.04742331
家驊橋(中研院內),121.6124214,25.04250153
四分橋,121.6163445,25.03705113
公墓橋,121.6118826,25.03431014
雄獅橋,121.6101288,25.0338271
永思橋,121.6140772,25.03584833
胡適橋(中研院內),121.6140634,25.04113042
世杰橋(中研院內),121.6145644,25.03994697
南港重陽路無名橋,121.5966106,25.05556589
民權橋,121.6179687,25.04549608
舫妃橋,121.6167982,25.03641355
成功橋,121.5921728,25.05902133
成美橋,121.5827943,25.05382899
南湖大橋,121.6120908,25.06316023
南深路棧道橋,121.6230354,25.0275035
環東高架橋(匝道D),121.5769325,25.0556544
環東高架橋(匝道E),121.6172329,25.06181958
環東高架橋(匝道F),121.6195906,25.06103427
舊環南高架,121.5018813,25.04435983
中興橋引道,121.501515,25.04414
光復橋引道,121.49121,25.024765
華江橋引道,121.49286,25.03546
萬板大橋引道,121.48942,25.03021
忠孝橋引道,121.5065267,25.04890513
華中橋,121.4958425,25.01284733
華翠大橋引道,121.4905666,25.0286105
大湖環湖步道,121.606315,25.07913
洲美高架橋(福國交流道段及洲美堤防段),121.4988451,25.10604663
洲美高架橋(磺港溪至大業路段),121.4998589,25.11772058
無名橋136(非北市府管理橋梁),121.58,25.0521
無名橋292,121.6058116,25.02812127
寶樹橋,121.6601535,25.0253742
社子大橋匝道N,121.4948561,25.11032756
社子大橋匝道S,121.4938131,25.11120265
建國高架橋(匝道11),121.536891,25.050175
建國高架橋(匝道2),121.5376115,25.027813
建國高架橋(匝道3),121.5379895,25.03569
建國高架橋(匝道4),121.537755,25.0369315
基隆路高架匝道H,121.547261,25.01965
基隆路高架匝道G,121.5425305,25.0156705
基隆路高架匝道E,121.538167,25.011986
基隆路高架匝道C,121.5345845,25.009759
基隆路高架匝道F,121.5341275,25.0093405
基隆路高架匝道D,121.5355375,25.0106625
基隆路高架匝道B,121.533426,25.009053
基隆路高架匝道A,121.53341,25.009261
新生高架(匝道A),121.5303328,25.04511885
新生高架(匝道B),121.5305441,25.04509485
新生高架(匝道C),121.5303676,25.04737515
新生高架(匝道D),121.5307404,25.04716145
新生高架(匝道E),121.528336,25.0501385
新生高架(匝道F),121.5284875,25.0502534
新生高架(匝道G),121.5274649,25.0560229
新生高架(匝道H),121.5276788,25.0561304
新生高架(匝道I),121.527743,25.06674095
新生高架(匝道J),121.5278973,25.06414545
新生高架(匝道K),121.5275106,25.07146795
新生高架(匝道L),121.5280031,25.0695908
新生高架(匝道M),121.5254153,25.0755792
新生高架(匝道N),121.5259563,25.0741875
建國高架橋(匝道14),121.5370745,25.060255
建國高架橋(匝道15),121.5369075,25.0601715
建國高架橋(匝道16),121.535129,25.0665
建國高架橋(匝道17),121.5340775,25.0683775
水源堤防道路匝道E - 師大路,121.5231754,25.02051464
水源堤防道路匝道D - 中正橋,121.5174157,25.02130657
水源高架環道A,121.5334693,25.00846811
水源高架匝道B,121.533931,25.00766058
水源高架匝道C,121.5339985,25.00794194
水源高架匝道D,121.5357115,24.9989475
水源高架匝道E,121.535498,24.9978255
立德路2號棧道,121.471588,25.1244775
大度貴子坑便橋,121.4860615,25.1218465
正氣橋3(南京東路引橋段),121.5689722,25.0513375
正氣橋4(塔悠路聯絡道-南向),121.5700361,25.05295833
正氣橋5(塔悠路聯絡道-北向),121.5702103,25.05291295
正氣橋6(圓環段一_塔悠路-基隆路),121.5700764,25.05131667
正氣橋7(圓環段二_南京東路-麥帥一橋),121.5704473,25.05153889
正氣橋8(圓環段三_基隆路-麥帥一橋),121.5707528,25.05130139
正氣橋9(市民大道-基隆路北向),121.5669246,25.04578678
正氣橋10(基隆路段-南向二),121.5679155,25.04703429
水源堤防道路匝道A - 華中橋水門右轉,121.4971499,25.01615324
水源堤防道路匝道B - 果菜市場棧橋,121.4970858,25.01636233
水源堤防道路匝道C - 富民街,121.5015607,25.01857055
新環河高架(匝道A),121.5061295,25.051096
新環河高架(匝道B),121.5062102,25.0505038
新環河高架(匝道C),121.5062875,25.05081645
新環河高架(匝道D),121.5065236,25.0500459
新環河高架(匝道E),121.5050492,25.0490979
新環河高架(匝道F),121.5042019,25.048022
新環河高架(匝道H),121.5052068,25.0479307
新環河高架(匝道L1),121.5011838,25.04514185
新環河高架(匝道L2),121.500347,25.0440095
新環河高架(匝道N),121.5075129,25.05392135
新環河高架(匝道R),121.4900903,25.0258496
新環河高架(匝道U),121.5053766,25.04888525
新環河高架(匝道X),121.4955513,25.0175007
新環河高架(匝道Y),121.4947048,25.0169635
建國高架橋(匝道12),121.536975,25.053781
建國高架橋(匝道13),121.5366895,25.053193
辛亥高架橋(匝道C),121.535419,25.0225685
辛亥高架橋(匝道D),121.53547,25.022361
洲美高架橋(福國交流道及洲美堤防段_匝道A),121.4989424,25.1004837
建國高架橋(匝道5),121.537929,25.0397735
建國高架橋(匝道6),121.5379465,25.039678
建國高架橋(匝道7),121.5365105,25.043525
建國高架橋(匝道8),121.5368425,25.043523
建國高架橋(匝道9),121.53654,25.0468225
建國高架橋(匝道10),121.5368255,25.0467565
洲美高架橋(福國交流道及洲美堤防段_匝道B),121.4987775,25.10140464
洲美高架橋(福國交流道及洲美堤防段_匝道C),121.4992734,25.10277284
洲美高架橋(福國交流道及洲美堤防段_匝道D),121.4990063,25.10346601
洲美高架橋(福國交流道及洲美堤防段_匝道E),121.4987843,25.10941572
洲美高架橋(磺港溪至大業路段_匝道G),121.4996831,25.11848507
洲美高架橋(磺港溪至大業路段_匝道H),121.499433,25.12211938
環東高架(主線1),121.5747265,25.0535435
環東高架(主線2L),121.580394,25.0566625
環東高架(主線2R),121.5804975,25.0565395
環東高架(主線3),121.585938,25.0595435
環東高架(主線4),121.5893775,25.059853
環東高架(主線5),121.593089,25.0595695
環東高架(主線6),121.6025245,25.0602315
環東高架(主線7),121.613655,25.062189
環東高架(主線8),121.6172575,25.062575
大直橋(匝道R),121.5462527,25.077469
永福橋(匝道B),121.528065,25.0123845
環東高架(匝道GL),121.5749515,25.05373
環東高架(匝道GR),121.5750455,25.0536225
環東高架(匝道ML),121.5749515,25.05373
環東高架(匝道MR),121.5750455,25.0536225
榮華三路便橋(人行),121.5256,25.112184
環東高架(主線9L),121.619578,25.06107
環東高架(主線10),121.6213095,25.059184
環東高架(匝道H),121.611527,25.06155
環東高架(匝道I),121.6172575,25.062575
環東高架(主線9R),121.619477,25.0610165
華興橋(人行),121.5226753,25.11079425
木棧便橋(自行車道)-2,121.5721525,24.994831
文林橋,121.5179643,25.10203323
中正承德棧橋,121.5156457,25.0903008
士林重陽橋機車引道彎度過大改善工程(RAMP A),121.5041627,25.08648578
士林重陽橋機車引道彎度過大改善工程(RAMP B),121.5054486,25.08451083
大度路3段棧橋,121.467782,25.1233815
虎源橋,120.353605,23.02414
無名橋(V22-730),120.346455,23.31667
無名橋(V26-730),120.33234,23.327415
無名橋(V4-730),120.31795,23.318135
崙頂橋,120.27935,23.01945
豐榮橋,120.297665,23.03381
豐榮1號橋,120.297735,23.035385
無名橋(V24-730),120.331945,23.32552
無名橋(V21-730),120.335415,23.32313
無名橋(N8-730),120.301465,23.301575
北勢橋-712,120.284895,23.05076
林坑橋,120.297245,22.902115
三號橋,120.08295,23.1952
民共橋,120.282045,22.939045
西勢橋,120.276255,23.01917
下甲橋,120.2887,23.054815
新圍東橋,120.15887,23.29378
無名橋(N6-712),120.384425,23.01583
鯤江橋,120.131985,23.28873
佛顓橋,120.32551,23.025395
冷水埤橋,120.3199,23.03905
煥昌橋,120.1823,23.242725
大潭南橋,120.132055,23.185115
無名橋(N10-712),120.365345,23.06033
無名橋(N2-710),120.2670779,23.0333611
杞舍橋,120.3122,22.94
無名橋(N3-712),120.35787,23.01827
無名橋(N1-711),120.278205,22.99038
無名橋(N2-711),120.28285,22.9513
無名橋(N1-712),120.36446,23.050455
無名橋(N1-725),120.13918,23.22791
牛港橋,120.406795,23.072265
無名橋(N9-712),120.366935,23.05734
頂店橋,120.378285,23.07342
離子尾橋,120.30891,23.04533
無名橋(N7-712),120.384085,23.016125
雙春橋,120.136965,23.299435
無名橋(N5-725),120.1669,23.19513
無名橋(N8-725),120.14171,23.206295
杞舍一號橋,120.30955,22.94314
知義橋,120.32073,23.02908
風空橋B,120.36861,23.01005
後鎮橋,120.31101,23.33032
長平二號橋,120.09484,23.214135
新營陸橋5,120.320215,23.320225
大埤橋-726,120.19867,23.24489
無名橋N3-711(溝仔尾橋),120.284525,22.91059
雙春六號橋,120.120625,23.29912
無名橋(N5-712),120.384835,23.015215
埔尾橋-724,120.15141,23.15647
松崙橋,120.37353,23.04729
無名橋(N10-730),120.294345,23.299385
太子一號橋,120.27216,23.29175
無名橋(N7-730),120.30652,23.30486
無名橋(N2-712),120.29959,23.022625
新豐一號橋,120.329295,23.02313
雙春七號橋,120.12809,23.299
營後橋,120.20028,23.20849
瓦寮橋,120.21847,23.2294
百福橋,120.18961,23.232085
二港橋(舊),120.195405,23.251775
無名橋(V6-730),120.31946,23.31791
錦湖橋,120.1712604,23.30407131
荃萊坑橋(原王萊坑橋),120.41465,23.063925
鄉界橋-725,120.13352,23.193935
明達橋,120.27426,23.31077
無名橋(N8-712),120.383305,23.017385
長平橋,120.097195,23.21701
龍雄二號橋,120.098355,23.114415
無名橋(V7-730),120.321415,23.315375
下看坪橋,120.15166,23.119925
茄苳橋-712,120.34974,23.034995
十份橋,120.1121,23.098665
新豐三號橋,120.329395,23.010245
無名橋(N12-712),120.291,23.03987
無名橋(18-725),120.090075,23.20179
無名橋(N2-727),120.14932,23.293515
永豐橋-724,120.127885,23.094565
無名橋(N6-725),120.168235,23.195035
大坑橋-712,120.37159,23.010165
新豐二號橋,120.332885,23.016945
中崙橋,120.352415,23.026805
無名橋(N13-730),120.331765,23.323235
太子宮橋,120.2718,23.30928
新興橋-730,120.27589,23.28829
長平一號橋,120.092865,23.213435
大苓橋,120.3021,22.90868
無名橋(N10-725),120.12055,23.1944
民族橋,120.318465,23.30895
無名橋(N2-730),120.319975,23.30922
太子三號橋,120.269765,23.294735
龍山橋-724,120.116265,23.137395
樹林橋,120.15642,23.112435
無名橋(N13-712),120.28815,23.044705
西濱雙春一號橋,120.116725,23.30408
雙春五號橋,120.130165,23.299315
無名橋(N3-727),120.124475,23.29879
雙春十號橋,120.12007,23.30259
北勢橋-721,120.238195,23.21276
新營陸橋1,120.324955,23.310565
風空橋A,120.36872,23.009795
福德橋-726,120.191125,23.209805
自強橋-730,120.323305,23.310345
無名橋(N4-712),120.35882,23.015915
無名橋(N15-712),120.30984,23.043015
無名橋(N4-725),120.163675,23.195245
羅符坑橋(原蘆竹坑橋),120.3025,23.31689
無名橋(N1-726),120.194875,23.25087
無名橋(N2-725),120.14648,23.22485
無名橋(N3-725),120.14737,23.222915
塭子瀨橋,120.280835,22.96439
帝溪橋,120.31437,23.03723
無名橋(N6-730),120.30871,23.306815
無名橋(N9-725),120.126545,23.20196
南筏子頭橋,120.16661,23.27406
正安橋,120.14855,23.289585
無名橋(N14-712),120.287225,23.04758
無名橋(N11-712),120.29405,23.037775
崩溝溪橋(原東芳橋),120.323555,23.059955
新渡子頭橋,120.1726,23.2916
無名橋(N4-730),120.312245,23.307855
太子二號橋,120.270935,23.293315
第三十號橋,120.17195,23.23835
無名橋(V5-730),120.318145,23.31803
無名橋(N11-725),120.114455,23.204515
一號橋-725,120.09351,23.19166
後營北二橋,120.21521,23.157525
德安二號橋,120.193995,23.24865
綠川橋(N1-730),120.321495,23.309425
新營陸橋2,120.32529,23.311515
下宅子排水3號橋,120.19512,23.1534
無名橋(V8-730),120.32125,23.314675
無名橋(01-721),120.2134,23.1892
仁愛橋-730,120.313145,23.30817
雙春九號橋,120.1224,23.29898
無名橋(09-713),120.401565,23.063015
義合橋,120.148005,23.10699
無名橋(N7-725),120.147685,23.19938
永樂北橋,120.18,23.1124
存仁感恩橋,120.361435,23.183795
竹林排水2號橋,120.191555,23.121255
仁里橋,120.13921,23.25557
無名橋(N11-722),120.21195,23.1663
竹林北橋,120.190185,23.125395
西港水圳8號橋,120.20177,23.11936
無名橋(N3-717),120.240475,22.92884
寮廓橋,120.28342,23.19459
施寮排水3號橋,120.21052,23.14492
無名橋(N1-727),120.15979,23.29425
外渡頭橋,120.16828,23.12889
大灣橋-726,120.19136,23.214605
無名橋(V11-730),120.32142,23.312025
文瑞橋,120.2067,23.20805
大塭寮排水8號橋,120.17896,23.103635
頂山橋,120.11252,23.17832
無名橋(V15-730),120.32067,23.32706
永吉橋,120.12511,23.094035
新芳橋,120.193685,23.27634
水牛橋,120.378895,23.066795
無名橋(N5-730),120.31005,23.307215
葫蘆埤水圳橋,120.29403,23.192265
新營陸橋3,120.326225,23.311565
大塭寮排水2號橋,120.19681,23.10762
玉港橋(舊),120.13667,23.262935
興合橋,120.120185,23.248825
竹林大橋(原劉厝排水5號橋),120.184575,23.12956
無名橋(N9-730),120.296235,23.299905
中周寮排水三號橋,120.22456,23.127115
過港橋,120.245325,23.2065
佳龍橋,120.17096,23.14277
大塭寮排水5號橋,120.188425,23.10501
大塭寮排水6號橋,120.18406,23.103995
無名橋(N12-730),120.27284,23.285975
中周寮排水二號橋,120.22474,23.127955
澄山一號橋,120.39861,23.04471
無名橋(賴姓民宅旁),120.32131,23.185075
新生一號橋,120.068515,23.06854
無名橋(N3-730),120.316015,23.308055
楠仔埔橋,120.40699,23.04739
南邑慈恩第九號橋(下埔橋),120.417575,23.036985
北門橋-727,120.12003,23.264865
無名橋(V20-730),120.334225,23.322955
劉厝排水2號橋,120.20378,23.13853
劉厝分線水圳1號橋,120.20737,23.15446
南海埔分線水圳1號橋,120.1935,23.1138
忠義公橋,120.2874,23.3157
無名橋(04-721),120.204805,23.190665
內庄橋,120.417365,23.05151
長興橋N4,120.19508,23.195065
北勢坑橋,120.39549,23.02517
岡林橋(新),120.41624,23.0164
東邊寮橋,120.2401,23.21269
仁愛橋-720,120.33071,23.167455
下宅子排水1號橋,120.192885,23.15863
牛港嶺一號橋,120.406545,23.06018
南海埔分線水圳2號橋,120.18995,23.1166
劉厝排水7號橋,120.17426,23.13059
新營陸橋4,120.328215,23.312795
南海埔分線水圳5號橋,120.1801,23.11925
施寮排水5號橋,120.20789,23.15
鹽豐橋,120.0916,23.19345
南海南橋,120.19569,23.11392
水流東橋,120.415615,23.03293
港墘橋,120.155775,23.13476
大塭寮排水3號橋,120.194915,23.106935
劉厝排水一號橋,120.20635,23.14175
山豹橋,120.39836,23.01574
施寮排水6號橋,120.211735,23.140725
無名橋(V10-730),120.32139,23.312585
大塭寮排水10號橋,120.17291,23.101325
後營排水5號橋,120.23376,23.14015
玉山橋,120.41332,23.020555
大塭寮排水1號橋,120.200865,23.109265
無名橋(匯記場旁),120.3366,23.196475
無名橋(V19-730),120.333665,23.32286
客子寮橋,120.21689,23.216465
竹林排水1號橋,120.19643,23.12153
西港線水圳13號橋,120.1809,23.111235
大塭寮排水7號橋,120.181185,23.104375
劉厝排水3號橋,120.19947,23.135175
農場水利橋,120.31364,23.183105
慶安橋(原劉厝排水4號橋),120.18867,23.130445
三結義橋,120.31523,23.21241
雙春一號橋,120.119555,23.299405
無名橋(V18-730),120.33333,23.32284
無名橋(64-720),120.320275,23.184955
無名橋(V12-730),120.31756,23.322975
澄山橋,120.383455,23.036375
永衡橋,120.11945,23.272
無名橋(N1-722),120.164765,23.126365
龍安橋,120.16726,23.133205
無名橋(V9-730),120.321215,23.314415
劉厝橋,120.17985,23.130505
舊社橋,120.361545,23.182915
南海埔分線水圳3號橋,120.188695,23.11743
無名橋(06-721),120.216915,23.221635
中寮橋A,120.10898,23.16764
西港排水4號橋,120.201715,23.1265
西港線水圳6號橋,120.21,23.12785
中周寮排水四號橋,120.22365,23.1239
溪南堤防排水3號橋,120.18874,23.09486
中州橋,120.19121,23.123055
新化橋,120.40215,23.05535
無名橋(N3-722),120.208135,23.18375
大塭寮排水9號橋,120.17692,23.102985
金砂橋,120.21061,23.156875
牛稠橋-720,120.372115,23.17538
草山三號橋,120.43552,23.002865
中周寮排水1號橋,120.2097,23.13202
劉厝分線水圳5號橋,120.184195,23.13896
牛港嶺二號橋,120.406045,23.06046
無名橋(56-720),120.32944,23.17902
施寮排水1號橋,120.209485,23.148655
無名橋(55-720),120.32125,23.1808
西港排水1號橋,120.20594,23.12724
後營排水1號橋,120.22201,23.15133
無名橋(N2-717),120.239215,22.93791
溪埔寮排水2號橋,120.18938,23.088755
施寮排水4號橋,120.210785,23.14402
下宅子排水4號橋,120.19632,23.150405
施寮排水2號橋,120.20998,23.146795
六雙橋,120.36424,23.172255
西港排水2號橋,120.204755,23.12705
鹽水坑二號橋,120.449055,23.001095
正德橋,120.092045,23.185395
太西橋,120.22835,23.1444
南海埔分線水圳4號橋,120.18565,23.11776
龍眼宅橋,120.483065,23.03424
後營排水4號橋,120.23319,23.140315
二重港橋,120.254435,23.202915
營北橋,120.216635,23.152205
苦苓腳橋,120.475495,23.03024
三角潭橋,120.431235,23.04209
重信橋,120.09361,23.15221
西港排水7號橋,120.190365,23.12586
三樂排水1號橋,120.201785,23.119155
草山七號橋,120.43448,22.98826
太西分線水圳2號橋,120.227615,23.14061
坑內大潭橋,120.48819,23.110505
中寮橋B,120.10788,23.149405
小埤頭橋,120.2295,23.19905
下幹排水1號橋,120.2084,23.11814
八葛橋,120.345265,23.17436
佳通橋,120.164185,23.14882
龍湖橋,120.271565,23.190605
新埔橋,120.3299,22.97135
下宅子排水2號橋,120.194455,23.15508
水圳橋-721,120.282805,23.195145
西港線水圳9號橋,120.19959,23.117285
下宅子排水5號橋,120.18851,23.14806
鎮安橋,120.1502,23.16922
草山四號橋,120.436815,22.99922
A幹線排水橋,120.194135,23.118955
溪埔寮北橋,120.18349,23.08694
無名橋(N1-724),120.092435,23.172745
無名橋(N9-722),120.177765,23.165555
草山一號橋,120.41989,23.01271
無名橋(草地橋),120.4035,23.005605
太西分線圳3號橋,120.229345,23.138885
溪南堤防排水4號橋,120.18655,23.094055
大石公橋,120.459005,23.029485
草山八號橋,120.434765,22.985215
保安橋(南160),120.23322,22.9265
大塭寮排水4號橋,120.1912,23.10575
溪埔寮排水1號橋,120.192055,23.090385
下幹排水3號橋,120.210425,23.1272
無名橋(19-721),120.212455,23.21163
新田橋,120.2567,22.958
芭拉湖橋,120.471035,23.06857
鈞惠橋,120.35451,22.9415
無名橋(16-718),120.338595,22.911385
岡林橋,120.41721,23.01643
西港線水圳2號橋,120.220685,23.143325
後營橋(原西港線水圳3號橋),120.21955,23.1395
溪南堤防排水1號橋,120.197035,23.09812
忠孝二號橋,120.17937,23.16504
草山六號橋,120.435915,22.990235
瓦搖水圳橋,120.305915,23.183005
西安橋,120.262595,23.20263
海寮橋-724,120.10925,23.125465
西港線外水圳1號橋,120.22051,23.14629
西庄一號橋,120.29802,23.18773
後庄橋,120.204835,23.18473
無名橋(N7-722),120.185305,23.165065
坑口二號橋,120.446785,23.030555
西港線水圳12號橋,120.186225,23.112005
西埔橋,120.44454,23.0425
無名橋(N22-717),120.25455,22.99288
下幹排水2號橋,120.20988,23.123155
福錦橋,120.24403,23.20751
南勢橋,120.18033,23.140865
西港水圳7號橋,120.20737,23.122675
三和橋,120.449095,23.054225
草山二號橋,120.42741,23.00815
總榮橋,120.271505,23.16362
牛稠一號橋,120.48892,23.09483
三結義碑,120.31614,23.21482
西港排水5號橋,120.19628,23.12497
西港線水圳15號橋,120.1753,23.107355
溪南堤防排水6號橋,120.175365,23.08825
檨仔林橋,120.230645,23.141835
太西線分圳1號橋,120.22596,23.14224
無名橋(48-713),120.44888,22.9953
無名橋(N5-717),120.248815,22.91094
西港線水圳11號橋,120.1934,23.11285
西港排水6號橋,120.193845,23.12532
溪埔寮橋,120.1859,23.0877
大甲二號橋,120.20927,22.925125
溪南堤防排水5號橋,120.182815,23.09234
劉厝分線水圳3號橋,120.19809,23.14628
正道橋,120.19809,22.922645
玉南2號橋,120.459785,23.062685
太西分線水圳4號橋,120.22799,23.135235
劉厝分線水圳4號橋,120.18913,23.142075
葫蘆埤出水口,120.294735,23.200425
車路墘一號橋,120.22705,22.92815
三樂排水2號橋,120.205035,23.111385
湖山橋,120.352465,23.21276
鯽潭橋,120.25046,22.99117
第一號橋(原中協北水圳橋),120.35057,23.2029
弓崎橋,120.40597,22.958685
溪尾橋-713,120.417735,23.02899
溪南堤防排水2號橋,120.19133,23.09585
無名橋(N8-722),120.17595,23.1657
堤內橋,120.43106,23.00501
無名橋(N7-717),120.25451,22.91443
大坪2號橋,120.39399,22.93154
劉厝分線水圳2號橋,120.205295,23.151385
無名橋(N24-717),120.251975,22.978475
草山五號橋,120.437645,22.993105
中西橋,120.44493,23.04708
無名橋(N6-722),120.19345,23.165015
義勇橋,120.331655,23.19431
無名橋(43-713),120.44713,23.000295
無名橋(N23-717),120.25127,22.97799
無名橋(13-720),120.332365,23.20395
大昌一號橋,120.312455,22.99508
忠孝一號橋,120.18032,23.16465
嘉南橋-720,120.36413,23.21535
無名橋(N9-717),120.22825,22.92804
埔尾橋-716,120.460655,23.04737
寶發橋,120.267375,22.981045
無名橋(N14-715),120.520445,23.127565
洋子下橋,120.242625,22.95618
壽峰橋,120.510225,23.158915
觀音5號橋,120.535155,23.195295
後營2號橋,120.21791,23.138225
聖龍橋,120.253675,22.979395
南廓第一號橋,120.299105,23.23993
芋園橋,120.39185,22.97075
無名橋(50-713),120.442545,22.991815
平和橋-716,120.45282,23.060365
大坪橋(B),120.393715,22.925985
新寮北橋,120.20188,23.160035
西港線水圳5號橋,120.2155,23.1363
大坑橋-714,120.489925,23.11424
蕭瓏分線水圳3號橋,120.20704,23.1591
無名橋(49-713),120.44866,22.99503
鹽水坑一號橋,120.43883,22.99231
水坑橋,120.375025,22.96941
匙仔內橋(47-720),120.297045,23.21946
大寮排水1號橋(佳中橋),120.183915,23.141215
鹽水坑橋-713,120.44074,22.9943
無名橋(N6-717),120.2462,22.907
興化橋,120.386955,22.9266
尊水橋,120.36126,23.20503
隆西街,120.30512,23.191115
水琦橋,120.493095,23.10808
南北寮橋A,120.354595,22.972455
文賢橋,120.22989,22.934035
無名橋(11-720),120.32709,23.185155
官工三號橋,120.32289,23.211015
牛稠三號橋,120.49657,23.09203
無名橋(51-713),120.446105,22.991505
無名橋(N24-715),120.543365,23.21042
牛稠五號橋,120.25338,23.101245
大甲一號橋,120.21689,22.92614
三角堀橋,120.41759,23.004155
牛稠潭橋,120.312135,22.978865
土庫一號橋,120.25755,22.9816
楠坑橋,120.358105,22.915955
無名橋(N8-717),120.26067,22.93334
隆本二號北橋,120.31384,23.1991
無名橋(N4-717),120.2484,22.91157
水閘橋,120.34916,23.18841
中協橋,120.35093,23.197995
太子橋,120.260265,22.994025
中坑橋,120.494695,23.107745
西庄3號橋,120.303295,23.189385
下湖橋,120.303835,22.984965
豐盟橋,120.248185,22.91178
王萊園一號橋,120.511525,23.144325
無名橋(N12-717),120.26574,22.978625
車路墘二號橋,120.22605,22.9257
崎腳橋,120.370365,22.963875
無名橋(N1-717),120.24281,22.941645
無名橋(分歧站旁),120.3511,23.208205
無名橋(官田角秀山),120.337465,23.20758
苞子園橋,120.51327,23.12975
無名橋(26-720),120.366505,23.215785
無名橋(23-720),120.358515,23.21262
溪尾橋-716,120.45975,23.033791
玉南1號橋,120.46472,23.065395
尖山橋(舊),120.46763,23.066175
南寮橋,120.511195,23.176575
樂利橋,120.5384,23.21059
牛稠四號橋,120.50221,23.098005
大坑橋-719,120.39646,22.989225
德熙橋,120.22963,22.93947
榮橋,120.24187,22.917945
大崎橋(往舊社部落),120.36774,23.190415
水圳橋(南65),120.31643,23.18455
官工二號橋,120.32619,23.211435
鄉界橋-720,120.287035,23.199245
大溪橋-719,120.359975,22.94075
中農橋,120.26099,22.907275
望龍橋,120.362305,22.972075
中洲橋(中洲村),120.253985,22.908455
蜈埔橋,120.415765,22.94769
導水路二號橋,120.356895,23.206295
無名橋(N18-717),120.26434,22.980655
葫蘆埤溢水口,120.297605,23.202675
無名橋(N11-717),120.249,22.9413
枋仔湖支線橋,120.51823,23.138195
瓦嗂橋,120.309345,23.183725
無名橋(61-715),120.48159,23.18221
山尾橋,120.46022,23.06382
後坑四號橋,120.414075,23.08592
綠波橋,120.3312,22.959
西龜橋,120.35454,22.889975
中洲橋,120.25868,22.90712
觀音17號橋,120.47216,23.06531
無名橋(N16-717),120.254745,22.979895
枋仔湖一號橋,120.512805,23.14193
大溪洲橋,120.456855,23.0650155
無名橋(隆田後車站),120.320145,23.1914
進財橋,120.369565,22.997005
官田溪過水橋,120.35335,23.18768
牛稠二號橋,120.492115,23.09362
無名橋(25-720),120.36235,23.21461
無名橋(N14-717),120.25854,22.9533
灣潭橋,120.46777,23.169695
官工一號橋,120.3206,23.200765
無名橋(N20-717),120.2636,22.993235
大昌崎橋,120.354465,23.183585
茄苳橋-715,120.487865,23.1342
三進橋(舊),120.53936,23.210215
坑內一號橋,120.50115,23.109475
中洲橋(陸軍路),120.248975,22.918635
無名橋(N13-717),120.259915,22.965875
許溪橋,120.369775,22.987165
長興橋,120.46178,23.121305
憲政街橋,120.457155,23.121785
無名橋(83-715),120.526355,23.2151
玉南4號橋,120.457365,23.061625
仙倫橋,120.38832,22.926475
蘆芝潭橋,120.50049,23.199955
一甲橋,120.25615,22.98015
宵里橋,120.44966,23.12327
仁德一號橋,120.24784,22.96722
無名橋(N10-717),120.24719,22.96091
無名橋(78-715),120.52558,23.19664
鳳興橋,120.491345,23.167455
中埤溝橋,120.332125,23.20605
無名橋(07-720),120.339985,23.18051
無名橋(91-715),120.47131,23.201455
無名橋(87-715),120.474435,23.19342
玉南3號橋,120.458025,23.06243
三甲橋,120.23774,22.928085
水圳橋(南120),120.345345,23.1853
無名橋(N17-717),120.2633,22.96643
無名橋(N13-715),120.488315,23.13763
無名橋(N23-715),120.54259,23.21003
深坑橋-714,120.478935,23.1206
無名橋(V53-730),120.27624,23.299895
溪子巷橋,120.26645,22.9376
檳榔宅橋,120.40058,22.944175
菁寮橋A,120.344585,23.377255
內割橋,120.499185,23.10671
無名橋(07-731),120.352,23.324995
東勢坑橋,120.52678,23.197145
無名橋(V61-730),120.26958,23.294755
無名橋(V52-730),120.28891,23.309545
無名橋(N19-715),120.54289,23.185305
深山橋,120.53309,23.1634
後坑橋,120.419785,23.07714
大崎村橋,120.36968,23.193285
無名橋(N27-715),120.479535,23.187435
無名橋(35-720),120.320055,23.185485
鏡面二號橋,120.4956,23.05892
三進橋(新),120.548875,23.21036
無名橋(N17-715),120.541445,23.184375
港仔橋,120.25169,22.907915
無名橋(N19-717),120.265265,22.993355
無名橋(N21-717),120.2581,22.993905
王萊園二號橋,120.50967,23.14404
清沛橋,120.36805,22.99104
枋仔湖二號橋,120.5129,23.140345
無名橋(營區前),120.333345,23.18176
北勢大橋,120.51857,23.18071
平坑三號橋,120.6227,23.20285
砰仔寮橋,120.552965,23.2101
關山2號橋,120.564055,23.092485
無名橋(虎山橋),120.342995,22.95346
王萊園橋,120.5064,23.14001
白水溪1號橋,120.471825,23.35245
新埤橋,120.3147,23.343935
無名橋(V48-730),120.287925,23.31062
無名橋(N15-717),120.258745,22.953115
亞美坑橋(原關山11號橋),120.5862,23.16304
莊敬橋,120.53314,23.2133
無名橋(V55-730),120.281545,23.299775
竹新橋A,120.30406,23.34252
六重溪一號橋,120.46164,23.310295
九天橋,120.516165,23.179955
平坑一號橋,120.620845,23.19542
平坑二號橋,120.621535,23.196615
鎮山橋,120.543425,23.21149
坑口橋,120.44956,23.035085
無名橋(12-715),120.494175,23.136825
忠孝橋,120.32038,23.353505
小火坑二號橋,120.503045,23.110395
信義橋-715,120.54076,23.221045
榮光橋,120.529,23.195645
竹北橋,120.413205,23.371015
自強橋-715,120.534885,23.21117
後壁坑橋,120.44357,23.12774
官真埔橋,120.501125,23.06482
後鎮橋(原無名橋N3),120.312475,23.334035
內層林橋,120.45355,23.10275
杭內橋,120.45439,23.330595
坑仔內橋,120.47166,23.200995
貓兒干橋,120.437205,23.104745
無名橋(V56-730),120.2813,23.29955
內拷潭橋,120.375915,22.988355
密婆穴橋,120.443965,23.10641
無名橋(V59-730),120.286785,23.299505
新社橋-714,120.47038,23.14704
草人坑橋,120.587745,23.154295
無名橋(V9-731),120.322275,23.35515
無名橋(V51-730),120.29015,23.30916
大崎橋(藝術學院側門),120.37267,23.1897
關山5號橋,120.566605,23.106545
檨仔林橋,120.45354,23.33084
下茄苳橋,120.36546,23.354055
無名橋(36-720),120.325185,23.186415
深坑橋-715,120.476235,23.189345
福森橋,120.474605,23.063775
松腳橋,120.430855,23.098635
牛坑橋,120.5079,23.133695
草山橋,120.52084,23.16224
民生橋-715,120.537915,23.210605
平坑四號橋,120.623475,23.20419
刺桐腳橋,120.41643,23.073865
無名橋(89-715),120.47313,23.19472
隙口橋,120.385515,23.39095
關山1號橋,120.553585,23.06922
無名橋(16-715),120.521245,23.180865
無名橋(N18-715),120.54207,23.18497
仁愛橋-731,120.31719,23.347365
無名橋(92-715),120.477715,23.2069
東秀橋,120.331815,23.33636
坑內七鄰橋,120.49977,23.10835
仕安橋,120.322125,23.35514
無名橋(V18-731),120.34924,23.360925
復興橋-715,120.53791,23.21484
新光橋,120.52864,23.213185
大堀橋,120.52731,23.214485
關山17號橋,120.615965,23.223785
芋匏橋,120.42984,23.07458
廓腳橋,120.452265,23.106945
無名橋(V60-730),120.2899,23.29925
無名橋(V15-731),120.332375,23.369325
竹圍後橋,120.296685,23.341365
無名橋(N6-731),120.329845,23.360675
玉豐橋,120.40573,23.376875
裕農橋,120.31235,23.3448
湖內橋,120.498195,23.06903
新嘉橋B,120.32261,23.37824
斗豐橋,120.44692,23.14218
廣安橋-731,120.375675,23.37609
竹新橋B,120.306215,23.34095
無名橋(V7-731),120.3302,23.34032
新嘉橋A,120.313505,23.36333
嘉安橋,120.36577,23.35029
無名橋(V54-730),120.27621,23.300095
旭村橋,120.526835,23.18312
三合林橋,120.461665,23.09287
無竹圍厝橋,120.389755,23.36614
竹新橋C,120.3081,23.35411
後坑三號橋,120.415535,23.081015
菁豐橋,120.34694,23.375625
下土溝橋,120.386225,23.37283
無名橋(V30-731),120.38021,23.33973
後壁(尾厝橋),120.36218,23.369565
博善橋,120.396225,23.388975
平路埠仔橋,120.370845,23.351145
無名橋(N11-715)(香梅二號橋),120.543965,23.180415
後蔀橋,120.33672,23.385705
魚寮橋(原漁寮橋),120.34071,23.369185
無名橋(V34-731),120.344935,23.342725
無名橋(N3-715),120.498685,23.13499
頭前溪-1,120.455905,23.104375
無名橋(N4-732),120.417145,23.37771
農埠橋,120.359755,23.36608
菁寮橋B,120.3328,23.38186
無名橋(S3-732),120.407345,23.369435
林子內橋,120.45982,23.36783
崎內農路第三號橋,120.46381,23.37397
慈光橋,120.4903,23.354575
龍山橋-733,120.50071,23.276685
第二號橋,120.40762,23.300975
無名橋(V12-731),120.31625,23.37523
後坑二號橋,120.416875,23.079305
無名橋(V10-731),120.30855,23.353925
關子嶺二號橋,120.50262,23.274545
下庄橋,120.401595,23.36792
無名橋(V21-731),120.35932,23.369065
本協橋(V28),120.38594,23.35625
無名橋(N2-731),120.339325,23.327355
無名橋(後壁橋),120.363215,23.37188
心樂橋,120.452875,23.365955
無名橋(S2-732),120.409125,23.37084
廣安橋-732,120.389535,23.39282
無名橋(V63-730),120.27503,23.286655
無名橋(V35-731),120.35335,23.33747
土溝橋,120.379345,23.374665
檳榔腳1號橋,120.46561,23.313645
慈聖橋,120.4217,23.337495
仁厚橋(原白水溪2號橋),120.46286,23.352905
溫泉橋,120.52531,23.12851
杭內橋(舊橋),120.4659,23.332525
無名橋(14-715),120.495375,23.16672
嘉田橋,120.38307,23.383975
鳳尾橋,120.32063,23.36121
無名橋(V31-731),120.387695,23.348665
草汴橋,120.456645,23.381305
侯伯橋(南90支),120.369655,23.36992
懷德橋,120.394315,23.391325
無名橋(N12-715)(香梅三號橋),120.548175,23.18037
協進橋,120.453515,23.35367
宅內1號橋,120.441265,23.249595
無名橋(24-731),120.35437,23.37087
無名橋(V14-731),120.322815,23.37725
龜殼橋,120.42526,23.085715
埔頭橋,120.49535,23.146855
本協橋(V27),120.385565,23.356395
無名橋(V32-731),120.307105,23.363965
茄平橋,120.354545,23.356975
無名橋(V62-730),120.274885,23.28837
六重溪四號橋,120.483345,23.31035
無名橋(N1-732),120.442185,23.32443
奇新橋,120.449435,23.37296
無名橋(S6-732),120.47417,23.341625
香蕉宅橋,120.47385,23.38511
無名橋(V16-731),120.332245,23.379225
崎內農路第二號橋,120.464625,23.37915
杭內2號橋,120.4681,23.332725
觀音21號橋,120.39453,23.39155
無名橋(V2-731),120.31522,23.344555
青葉橋,120.406415,23.337225
無名橋(N1-715),120.489185,23.1384
無名橋(N6-715),120.5144,23.13112
無名橋(N5-715),120.509625,23.13312
埤斗橋,120.409525,23.385615
芳興橋,120.38799,23.353415
木林橋,120.45205,23.35179
宅子內橋A,120.43924,23.24984
香蕉宅2號橋,120.47399,23.383905
善偉橋,120.454875,23.386675
柿子坪橋,120.43728,23.258075
六重溪三號橋,120.47918,23.30391
慈泰橋,120.43548,23.3349
荖葉橋-733,120.39368,23.267835
宅子內橋B,120.440225,23.247565
埤仔頭橋,120.43725,23.36702
崎內農路第一號橋,120.468075,23.38331
大洋橋,120.463935,23.264105
善典橋,120.45128,23.311085
下南勢橋,120.46357,23.248125
杭內1號橋,120.46836,23.332895
慈明橋,120.41931,23.40332
嘉南橋-734,120.36404,23.215325
無名橋(N3-732),120.4125,23.35464
聖榮橋,120.380305,23.30942
竹頭排橋,120.479095,23.283335
太城橋,120.43741,23.398185
無名橋(S4-732),120.406075,23.36853
宅內3號橋,120.440625,23.248525
枋子林橋,120.397075,23.30077
忠義橋,120.38265,23.2897
後坑橋,120.46637,23.25531
田寮橋,120.468775,23.26965
村協橋,120.464045,23.27829
深坑橋-733,120.462035,23.25616
崩崁橋,120.49097,23.29004
竹南橋-732,120.412185,23.367185
第十四號橋,120.40005,23.308205
北寮橋-733,120.45112,23.26297
吉林橋,120.38779,23.29473
東河橋,120.38825,23.2977
傑農橋,120.43437,23.312025
公館橋,120.439875,23.26756
五欉檨橋,120.437095,23.24551
宅內2號橋,120.44049,23.249015
大坑2號橋,120.452555,23.29581
埤角橋,120.47129,23.27993
清風橋,120.435235,23.28292
東榮橋,120.387345,23.32513
凍腳橋,120.50828,23.27412
無名橋(N3-734),120.343885,23.238205
綠蔭橋,120.398495,23.22286
第十二號橋,120.39225,23.30185
大坑1號橋,120.451485,23.287015
無名橋(54-733),120.384915,23.293905
關聖橋,120.46997,23.2799
菁埔橋,120.30765,23.239095
下溝橋,120.46151,23.09455
龜丹橋,120.48713,23.14082
嚴仔頂路二號橋,120.51842,23.148535
無名橋(N4-715),120.501345,23.135335
無名橋(11-715),120.495585,23.139615
抨坑水泥橋,120.605525,23.180475
山後野溪橋,120.47819,23.11367
右武衛橋,120.266465,23.22299
社區大橋,120.539565,23.203015
湖桶一號橋,120.44494,23.1357
坑尾橋,120.47341,23.194715
永泰橋,120.36656,23.288495
樹糖街橋,120.29489,23.29486
勵志橋,120.3175,23.269115
田中園橋,120.486935,23.0466
11號橋,120.383005,23.27024
尖山二號橋,120.411525,23.249395
頭前溪-2,120.455905,23.103125
嚴仔頂路一號橋,120.513135,23.141885
路東橋,120.336755,23.279265
善安橋,120.272675,23.13151
新寮四號路一號橋,120.52431,23.16171
無名橋(N9-734),120.330665,23.24129
北庄橋,120.48072,23.04801
大埤一號橋,120.24783,23.22673
草林坑橋(原關山10號橋),120.58767,23.15421
無名橋(28-742),120.424795,23.15344
自強橋-734,120.434885,23.2174
新寮橋,120.517515,23.161355
無名橋(N2-715),120.49199,23.135455
鏡山橋,120.46776,23.04237
無名橋(N30-741),120.285855,23.13306
嵌仔腳橋,120.443655,23.1492
興津橋,120.26282,23.320875
第1號橋,120.437555,23.22303
頂角橋-735,120.296095,23.21838
嘉福橋,120.327825,23.143815
無名橋(N1-736),120.29148,23.268535
無名橋(N25-741),120.31488,23.149065
永華橋,120.37145,23.24976
無名橋(09-742),120.35927,23.11257
7號橋,120.3749,23.24819
自強橋-735,120.28132,23.211675
火燒珠橋,120.28796,23.260245
無名橋(N11-741),120.305565,23.12594
無名橋(N10-736),120.367665,23.250085
荖葉橋-736,120.39361,23.26791
無名橋(N14-741),120.309055,23.120375
六麻圳橋,120.257585,23.222425
南勢坑一號橋,120.438455,23.210135
灣裡橋,120.291095,23.15335
青埔仔橋,120.445055,23.151495
無名橋(N10-734),120.330575,23.24112
甲東湖子內橋,120.359355,23.231175
興隆橋,120.267335,23.317105
洪厝寮橋,120.246775,23.280195
下中橋,120.249885,23.31536
頂洲橋,120.20006,23.27357
無名橋(24-742),120.42728,23.14552
無名橋(N15-715),120.51903,23.138075
大埤橋-735,120.2498,23.228845
尖山一號橋,120.413345,23.249455
無名橋(N8-734),120.35951,23.230165
無名橋(茄農二號橋),120.324705,23.102955
竹圍橋,120.2016,23.262585
無名橋(N9-736),120.368465,23.251745
紅花園橋,120.387815,23.15009
蔦松橋,120.272145,23.323925
無名橋(04-735),120.24756,23.22165
大匏橋,120.40756,23.134355
興農橋-737,120.243925,23.30625
人和橋,120.303845,23.28504
無名橋(09-735),120.24842,23.227435
無名橋(N5-734),120.29478,23.23682
火燒珠二號橋,120.28668,23.2576
王軍營橋,120.34907,23.294595
無名橋(30-742),120.42597,23.156175
無名橋(X12-744),120.28715,23.10425
頂洲二號橋,120.20366,23.267045
13號橋,120.3834,23.2817
北門橋-737,120.265375,23.323545
無名橋(N1-737),120.217975,23.262605
港頭橋,120.32786,23.252835
茄拔橋,120.323795,23.13882
豐平橋,120.221145,23.263195
無名橋(N6-736),120.37401,23.255835
黑橋,120.255675,23.21412
無名橋(N5-736),120.37717,23.2632
無名橋(N1-741),120.29922,23.1463
無名橋(N6-734),120.31759,23.253425
橋頭港橋,120.28371,23.22987
里仁橋,120.2659,23.324405
無名橋(N16-741),120.28471,23.132915
牛山橋-714,120.45861,23.100275
大豐橋,120.228675,23.26638
南勢坑2號橋,120.441285,23.20847
下窩橋,120.290495,23.2663655
營前南橋,120.26832,23.225975
無名橋(07-735),120.23756,23.235695
竹宅橋,120.41672,23.149765
東勢寮二號橋,120.320185,23.15342
莿桐寮橋,120.254775,23.284725
無名橋(N19-741),120.30825,23.137
大溪橋-735,120.26674,23.2203585
尖山橋-736,120.397055,23.235025
無名橋(N15-741),120.320215,23.15587
8號橋,120.377485,23.2542
蕃仔溝橋,120.41738,23.14888
茄拔放水路一號橋,120.32748,23.13207
竹仔腳橋,120.24102,23.27289
大豐寮橋,120.233485,23.223635
竹埔東橋,120.24864,23.2663
湖底橋,120.491935,23.04853
天保厝橋,120.23593,23.266745
無名橋(N2-736),120.3786,23.26384
中坑一號橋,120.39439,23.0928
無名橋(N12-741),120.3056,23.125885
羊稠厝橋,120.2138,23.28197
無名橋(N20-715),120.543295,23.18511
橋頭仔港橋(舊),120.28428,23.23077
北幹線第九號橋,120.380885,23.258255
無名橋(N1-744),120.3202,23.0766
孫厝橋,120.22474,23.294005
無名橋(N3-736),120.376225,23.26248
新厝橋,120.347295,23.265575
光文橋,120.302735,23.13993
桶仔腳橋,120.40408,23.258735
忠勇橋,120.275275,23.209415
嘉興橋,120.323485,23.137175
無名橋(N6-741),120.27525,23.140945
玉中橋,120.390255,23.09859
圍西橋,120.198655,23.263685
無名橋(N4-736),120.37471,23.258705
無名橋(N27-741),120.31105,23.155975
大內鄉界橋,120.35008,23.15063
無名橋(74-715),120.531005,23.211575
大內第一號橋,120.346055,23.15292
蔡頭埤坑橋,120.36367,23.280835
彎潭橋,120.3824,23.113475
大屯黑橋(原無名橋06-735),120.234865,23.234425
無名橋(N8-736),120.36968,23.253615
無名橋(N7-734),120.362835,23.231385
南勢坑3號橋,120.443245,23.208295
12號橋,120.38178,23.27521
無名橋(N2-737),120.246135,23.266265
無名橋(N18-741),120.325225,23.12536
無名橋(25-742),120.42323,23.14893
豐年橋,120.31756,23.28857
無名橋(N5-741),120.268055,23.138765
無名橋(N6-745),120.20314,23.089955
新吉西橋,120.200875,23.084985
無名橋(N22-741),120.3237,23.1254535
治水橋,120.26507,23.319705
嘉南橋-741,120.32332,23.13544
無名橋(N2-741),120.30311,23.139685
無名橋(N3-741),120.303695,23.13879
文武橋,120.26512,23.322635
牛場橋,120.41287,23.114405
北子店橋,120.309045,23.137925
無名橋(N21-741),120.32403,23.13885
無名橋(N24-741),120.30892,23.137815
東昌寮第一號橋,120.32032,23.15339
富農橋,120.36036,23.289445
善運橋,120.425075,23.15406
無名橋(27-742),120.423705,23.15072
無名橋(N7-736),120.37142,23.254575
無名橋(N8-741),120.277145,23.138685
無名橋(26-742),120.423985,23.14994
保西橋,120.234375,23.12121
曲溪橋,120.39008,23.10629
無名橋(X11-744),120.287985,23.096935
無名橋(23-742),120.42814,23.14635
無名橋(N4-745),120.230765,23.11776
無名橋(X9-744),120.286185,23.108145
新園橋,120.420805,23.13677
無名橋(N4-744),120.3239,23.0706
三舍一號橋,120.29089,23.097905
八翁一號橋,120.299975,23.27346
新市二號橋,120.27985,23.081525
無名橋(N1-1-744),120.336355,23.071635
南管田橋,120.41849,23.167825
頭社橋,120.381765,23.14338
行金橋(原新社橋-742),120.41063,23.12107
竹埔橋,120.24444,23.26638
管寮村東橋,120.22053,23.11068
無名橋(N2-744),120.32025,23.0766
玉峰四號橋,120.39765,23.10439
竹宅橋-2(原竹南橋-742),120.414655,23.150405
北勢洲橋,120.346485,23.12014
無名橋(N13-741),120.307895,23.124285
無名橋(N7-741),120.27531,23.14085
無名橋(X7-744),120.30854,23.073105
無名橋(N11-745),120.22319,23.09085
玉峰三號橋,120.396305,23.10331
龍山橋-742,120.40479,23.16156
大社橋(原明和橋),120.321855,23.097955
無名橋(N23-741),120.323495,23.13541
大內二號橋,120.35075,23.144295
無名橋(N10-741),120.271645,23.138035
無名橋(22-742),120.42927,23.146345
無名橋(N4-741),120.279375,23.14677
無名橋(N9-745),120.2088,23.08611
新輝橋,120.3875,23.136735
無名橋(N9-741),120.271635,23.138155
大洲四號橋,120.2703,23.076105
蘇林橋,120.25523,23.126905
海寮西橋A,120.205555,23.095225
大潭橋-743,120.34425,23.089075
大內第三號橋,120.372805,23.127715
南路頭橋,120.334825,23.102525
進學橋,120.28941,23.1342
玉峰二號橋,120.39494,23.102545
無名橋(N14-745),120.247355,23.07869
歡門橋,120.220845,23.286295
無名橋(X4-744),120.321955,23.08891
番寮橋,120.23741,23.298955
東勢寮一號橋,120.31851,23.15543
無名橋(40-742),120.391075,23.156435
革新橋,120.277235,23.138555
海寮橋-745,120.21638,23.105375
蘇厝橋,120.25073,23.12585
新建橋,120.431585,23.14256
無名橋(N17-741),120.3115,23.12925
無名橋(N3-745),120.249395,23.12577
無名橋(N1-745),120.246665,23.12579
湖仔內橋,120.390905,23.144685
無名橋(X10-744),120.286905,23.10393
水利橋,120.23981,23.12546
無名橋(N2-745),120.247555,23.125755
海寮西橋B,120.20441,23.092645
英雄橋,120.35265,23.15139
和順北橋,120.2139,23.07395
無名橋(N8-745),120.19929,23.08148
一號橋(原新市排水一號橋),120.28608,23.081095
舊厝橋,120.33267,23.06816
福大橋,120.273375,23.32415
大潭橋-744,120.31235,23.0818
無名橋(N26-741),120.324155,23.14841
新港橋,120.27855,23.085415
明山橋,120.405625,23.16302
南安橋,120.223525,23.096155
秀才庄橋,120.372265,23.124655
管寮村北橋,120.216835,23.1089
秀才橋,120.37345,23.126885
唭仔瓦橋,120.416355,23.11853
無名橋(08-742),120.363215,23.11163
海寮北橋,120.21052,23.104605
大洲三號橋,120.26344,23.075055
燒灰1號橋,120.404915,23.160615
沙崙橋,120.213525,23.07362
無名橋(N7-745),120.202077,23.08762
無名橋(N5-744),120.289025,23.105465
蘇林村東水圳橋,120.258835,23.129965
鳴頭一號橋,120.403255,23.15379
堤塘港橋,120.26685,23.09005
龍聖橋(原東社橋),120.32231,23.091145
新吉橋,120.208985,23.08457
六嘉橋,120.22049,23.081175
無名橋(N10-745),120.216055,23.0775
渡子頭橋,120.240745,23.098785
無名橋（漁塭）,120.11253,23.038295
無名橋（安中路四段）,120.160579,23.047154
無名橋（垃圾涵洞4號）,120.10398,23.046925
無名橋（垃圾涵洞5號）,120.09046,23.046805
無名橋（垃圾涵洞3號）,120.110645,23.046925
協進人行陸橋,120.1942,22.99702
四草橋,120.1281,23.0213
無名橋(安清路-垃圾一號),120.12445,23.051355
無名橋（城西街三段501巷(水閘門),120.09634,23.04832
無名橋（城南橋）,120.1158,23.062
登陸橋（城西街）,120.10325,23.05879
安南橋,120.20485,23.02899
無名地下道( 前鋒路地下道),120.21179,22.99279
南萣橋,120.18429,22.91869
無名橋（垃圾涵洞6號）,120.084925,23.046735
無名橋（安清路-垃圾五號）,120.08161,23.04575
無名橋(潮見橋),120.160585,23.041805
公親橋,120.19616,23.077535
大同地下道,120.21476,22.98184
府連路地下道,120.213705,22.986306
東門陸橋,120.21342,22.988545
開元陸橋,120.21494,23.004985
鹿耳門橋（安中路）,120.14078,23.060585
鳳梅天橋,120.580505,23.042605
安順橋,120.21383,23.029375
和安橋,120.21165,23.05955
安佃人行陸橋,120.17334,23.06419
無名橋（鯤鯓路-三號橋）,120.50705,22.959055
無名橋(府連人行地下道),120.21359,22.98535
東門人行地下道,120.21214,22.98848
東門路機車地下道,120.213475,22.988535
開元天橋,120.2171,23.00621
自強天橋,120.208065,22.999925
長榮陸橋,120.21909,22.987775
無名橋(崇明七街),120.215505,22.97849
頂新橋,120.211205,23.044155
北安順橋,120.2056,23.038
第四號橋,120.1297,23.0313
無名橋（城西街三段501巷）,120.0946,23.053115
建興橋,120.129525,23.03754
太平橋,120.21119,23.02652
柴頭港橋,120.21713,23.01915
無名人行地下道(火車站),120.21289,22.996865
念慈天橋,120.202595,23.00149
中正橋,120.2078,23.021
無名人行地下道(火車站前),120.21228,22.997635
無名橋（垃圾涵洞2號）,120.113455,23.04691
無名橋（安中路五段1巷）,120.155835,23.055515
無名橋（四草橋旁）,120.131565,23.02063
第五號橋,120.12,23.03815
無名橋(美松橋),120.17989,23.068125
第七號橋,120.135315,23.04701
頂美橋,120.1753,23.0008
湖美橋,120.181675,22.98893
臨安橋,120.1865673,22.99776523
安工四號橋,120.17845,22.9883
樂利橋,120.181775,22.982605
安新橋,120.18081,22.981655
安工參號橋,120.1774,22.9826
永華橋,120.18945,22.88755
新南橋,120.19107,22.991925
安工二號橋(人行),120.1838215,22.96299
安工二號橋,120.1839,22.96267
懷恩陸橋,120.21762,22.989435
安億橋,120.1556,22.9998
承天橋,120.16973,22.99827
無名橋(安清路-垃圾二號),120.11064,23.046925
無名橋(安清路-垃圾三號),120.096875,23.046845
無名橋（垃圾涵洞1號）,120.081725,23.045755
總安橋,120.20972,23.05335
新順橋,120.21078,23.048335
無名橋(大同地下道旁)(單號側),120.214526,22.981922
四維地下道,120.2044,22.9962
東寧地下道,120.20665,22.9951
無名橋（小東路地下道）,120.21386,23.0016
溪排港橋,120.10125,23.03235
無名橋（海尾橋旁）,120.16015,23.035
富強橋,120.22259,22.983985
永華橋（人行）,120.18634,22.96353
民德陸橋,120.205885,23.00603
東興陸橋,120.23313,22.998555
海東人行陸橋,120.17474,23.04927
中華陸橋,120.2182995,22.97302
北安橋,120.20555,23.02333
人行地下道（南二中）,120.213605,23.004015
無名人行陸橋,120.21682,23.00906
南康橋,120.2217,23.018378
第九號橋,120.1717,22.9508
南寧橋,120.181995,22.93318
永鳳橋,120.187865,22.96351
日新橋,120.18918,22.963715
無名橋(德興路),120.192543,22.963885
至善橋,120.574655,22.96417
逢甲陸橋,120.197625,22.979745
明賢人行陸橋,120.190745,22.97843
永寧橋,120.1861,22.9269
無名橋(鯤鯓路-二號橋),120.178705,22.959075
第八號橋,120.181,22.9497
無名橋（喜樹派出所）,120.1721,22.9394
無名橋（明興路）,120.181685,22.93434
菩提橋,120.2219,23.00785
精忠陸橋,120.23413,22.992945
法華橋,120.209855,22.981155
竹溪橋,120.207255,22.978085
獅子橋,120.214555,22.973675
海東橋,120.547475,23.029325
鹽水溪橋,120.192945,23.019215
安順陸橋,120.21867,23.049165
無名橋(怡安路),120.212315,23.04094
安慶橋,120.211825,23.04228
長安橋,120.1817,23.0702
親埔橋,120.198275,23.07924
永安橋,120.23931,23.05146
無名橋（長和舊橋）,120.212125,23.06358
金湯橋,120.204065,22.97509
無名橋(安清路-垃圾四號),120.09031,23.04676
鹿耳門橋（顯草街）,120.1175,23.0347
南興里第二號橋,120.15589,23.07635
溪南橋,120.160605,23.07625855
南興橋(新),120.1586,23.07614
無名橋(大同地下道旁)(雙號側),120.214725,22.98165
無名橋(舊和鼎橋),120.243085,23.062365
東和橋,120.235355,23.055551
仁愛橋,120.223675,23.06375
長和橋,120.212175,23.063925
北順橋,120.211915,23.06759
無名橋（安和路533巷）,120.1678,22.9608
中洲橋,120.21372,23.05739
學東橋,120.1377,23.0772
無名橋(十二佃橋),120.171935,23.064595
無名橋（公學路安中路間）,120.15165,23.0611
望月橋,120.175966,22.997727
竹筏港橋,120.09485,23.0605
城西橋,120.08812,23.05551
青城橋,120.09846,23.06724
文武大橋,120.1719,23.0007
華南地下道,120.208325,22.96812
大港觀海橋,120.20534,23.013115
春暉橋,120.416405,23.342245
二溪大橋,120.38471,23.115775
崁下寮橋(仁朝橋),120.40529,23.28158
下寮橋,120.39454,23.3272
木柵橋,120.39187,23.31953
東原2號橋,120.45278,23.2641
茄苳橋-733,120.4745,23.280985
鳥取橋,120.462735,23.252485
高原橋,120.469635,23.280605
東勢橋,120.17192,23.193694
大埔橋,120.44327,23.26194
滴水橋,120.4196,23.25849
福德橋-733,120.43766,23.27861
甘宅橋,120.439,23.379
牛山橋-733,120.41633,23.27579
二重溪橋,120.401595,23.277355
甘崎橋,120.46,23.39
白水溪橋,120.48016,23.346255
興農橋-732,120.481075,23.351105
甘宅2號橋,120.45417,23.36308
頭前溪橋-733,120.394085,23.26839
雙溪橋-733,120.458225,23.258765
向平橋,120.39395,23.27185
仁諄橋(原橋名為仙溪橋98.09改名),120.47125,23.38175
六重溪二號橋,120.479435,23.303545
照鏡山橋,120.36035,22.977
自治橋,120.3518,22.97145
南北寮橋B,120.3588,22.9758
烏山頭橋,120.359925,23.19504
紅港橋,120.175915,23.2769
菜寮橋,120.19585,23.16965
白筏橋,120.1655,23.2795
柳營鄉14號橋,120.385095,23.283445
永昌橋,120.362205,23.268025
新永橋,120.29945,23.0699
檳榔腳橋,120.47411,23.30753
交力林橋,120.37749,23.151905
無名橋(V65-730),120.281535,23.266395
大坑橋-742,120.401725,23.126685
關山15號橋,120.60079,23.18332
平溪橋,120.618245,23.191345
匏仔寮橋,120.433685,23.21669
無名橋(V64-730),120.26231,23.263145
舊部橋(V66-730),120.29119,23.277865
無名橋(X13-744),120.24055,23.1024
二重溪吊橋,120.50193,23.07723
景美橋,120.511805,23.202825
大湖桶橋,120.555015,23.18348
社區橋,120.533325,23.206715
中社橋,120.32718,23.24708
中社橋Ⅱ,120.326575,23.245225
允居橋,120.21205,23.165
天井橋,120.535245,23.205385
關山10號橋(新),120.57843,23.137065
湧泉旁過水橋,120.35211,23.1843
北幹線三號橋,120.35711,23.221295
頂角橋-720,120.290065,23.218485
西庄二號橋,120.302015,23.1889
關山12號橋,120.591905,23.165375
關山16號橋,120.60904,23.21377
灣丘橋-716,120.60453,23.19795
筏港橋,120.17195,23.2783
箍寮橋,120.161,23.2377
檳榔腳2號橋,120.46901,23.312715
香梅橋,120.536685,23.18294
老猿坑橋,120.504205,23.173285
無尾嶺橋,120.50485,23.13545
灣丘橋-715,120.51432,23.178435
八甲橋,120.29985,22.9799
檳榔腳3號橋,120.47159,23.31256
七甲橋,120.2977,22.98625
大昌橋,120.30035,22.99609
三龍橋,120.455555,23.313245
嘉宏橋,120.44303,23.322
旭壽橋,120.53399,23.18483
觀音13號橋,120.507025,23.17604
水口橋,120.46569,23.049455
壽保橋,120.51423,23.070445
鹽園橋,120.46255,23.0314
西埔村平和橋,120.44146,23.04844
雙溪橋-716,120.458885,23.031475
鹽水坑橋-716,120.52092,23.08318
關山3號橋,120.56789,23.0949
關山4號橋,120.56549,23.103035
關山8號橋,120.57229,23.130875
龍雄三號橋,120.088375,23.11749
龍雄一號橋,120.09215,23.11575
龍溪橋,120.1188,23.1353
篤加橋,120.1437,23.161
九龍橋,120.127,23.13015
中央大橋,120.05105,23.09965
堤塘港溪橋(原無名橋N6-744),120.25835,23.08255
大洲二號橋,120.2555,23.07085
中榮橋-745,120.23821,23.093705
港口橋-745,120.237525,23.08946
虎啣橋,120.38945,23.0612
民生橋-713,120.41675,23.0355
牛食水橋,120.38165,23.06465
鼎財一號橋,120.235155,23.08395
牛稠橋-712,120.31075,23.05545
龍虎橋,120.3391,23.02535
左鎮橋,120.40725,23.05025
茄苓崁橋,120.3583,23.0175
同心橋,120.3632,23.0592
新木柵橋,120.39215,23.31845
聖賢橋,120.365085,23.30195
無名橋(N2-733)(重溪橋),120.36591,23.29847
田尾橋,120.37015,23.30325
玉港橋(新),120.13845,23.26995
華光橋,120.1177,23.25245
永隆橋,120.1242,23.2701
關山14號橋,120.60051,23.189785
無名橋(N10-722),120.211,23.16655
無名橋(N2-722),120.17555,23.20245
無名橋(N5-722),120.20615,23.16855
溪洲橋,120.18125,23.20525
隆玉一號橋,120.36788,23.164095
新芳南橋,120.19057,23.269425
新康橋,120.34829,23.26872
旭山橋,120.382225,23.26452
鹿寮橋,120.471865,23.385825
水試所一號橋,120.10405,23.11875
無名橋(V38-730),120.2958,23.33225
無名橋(V3-731),120.30983,23.33762
無名橋(V4-733),120.317955,23.344685
無名橋(V33-731),120.33509,23.35572
無名橋(V22-731),120.35416,23.38223
無名橋(V17-731),120.34255,23.361945
永寧橋,120.1942,22.9252
鳳凰橋(吊橋),120.209402,22.976704
無名橋(N11-730),120.273995,23.28948
二港橋(新),120.1903,23.26585
筏子頭橋,120.1671,23.27615
平和橋-736,120.300735,23.28211
八老爺橋,120.296005,23.27667
寮仔廓溝橋,120.31217,23.287005
埤仔腳橋,120.3569,23.2861
新進路橋,120.30295,23.30211
中正二號橋,120.3162,23.32435
中正一號橋,120.316125,23.32788
中正橋-730,120.31645,23.31837
大同路橋,120.32249,23.309845
善忍橋,120.48719,23.34334
復興橋-731,120.318385,23.332535
新東橋-731,120.327075,23.33862
菁長橋,120.334345,23.37447
頂長橋,120.328965,23.36579
行廣橋,120.309545,23.354375
侯伯橋,120.366825,23.367545
東山橋,120.40697,23.33359
新東橋-733,120.33355,23.3107
埔羌坑大橋,120.3887,23.0815
走馬瀨橋,120.430425,23.137815
北寮橋-716,120.489325,23.077745
急水溪橋,120.31282,23.295785
中正橋-714,120.46654,23.14146
水庫一號大橋,120.512635,23.0796
關山6號橋,120.573465,23.115095
關山7號橋,120.57199,23.122595
第7號橋,120.272025,23.206215
無名橋(20-735),120.273805,23.209865
鹽水橋,120.26692,23.31687
月津橋,120.26495,23.321055
?頭港大橋(頭港大橋),120.24739,23.257675
華宗橋,120.17385,23.2255
鹽興橋(19-725),120.09175,23.2107
西寮橋,120.09725,23.1678
二號橋-724,120.08725,23.1028
一號橋-724,120.0728,23.10495
永吉二號橋,120.1311,23.0941
大埕橋,120.14565,23.13355
塭內橋,120.16645,23.13095
順安橋,120.171,23.1314
安定橋,120.23714,23.12347
斯庵橋,120.30706,23.13614
社東橋,120.28845,23.087545
大洲五號橋,120.27495,23.07755
豐華一號橋,120.26075,23.0892
潭頂橋,120.32645,23.0749
北館橋,120.24243,23.04758
蜈南橋,120.26635,23.031895
大灣橋-710,120.27285,23.00195
永仁橋,120.25635,22.9934
大坪橋(A),120.393705,22.931365
大甲橋,120.19895,22.923
二層橋,120.225,22.91415
保安橋,120.23045,22.9193
新溝橋,120.2527,22.9562
仁德橋,120.2447,22.9574
樹蘭花橋,120.2694,22.98365
豐里橋,120.45211,23.12248
後旦橋,120.467185,23.135005
獅仔山橋,120.48284,23.110395
永豐橋-711,120.30515,22.94635
無名橋(V8-731),120.32976,23.351975
無名橋(V4-731),120.317955,23.344685
關山9號橋,120.5727,23.13245
木瓜坑橋(新),120.6228,23.225865
關山9號橋(舊),120.58331,23.153785
木瓜坑橋(舊),120.608005,23.20735
平陽橋,120.3824,23.08695
蚵潭橋,120.3811,23.09785
玉峰一號橋,120.3941,23.10325
枋寮橋,120.395885,23.057395
橋頭仔港橋,120.284055,23.230425
鳴頭二號橋,120.4086,23.152
玉峰大橋,120.37,23.0972
有得橋,120.21067,22.978225
安億橋(新),120.163565,22.998055
竹溪吊橋,120.210376,22.979587
無名地下道(開元陸橋下),120.214395,23.005275
東陽橋,120.08278,23.06215
四草保護區後門橋 - 原：無名橋(大眾街),120.13786,23.02954
無名橋(北汕尾二路),120.12825,23.03631
無名橋(北汕尾一路),120.122045,23.027105
無名橋(北汕尾路二段顯宮國小前),120.125535,23.033085
大武橋,120.215875,23.01244
念親陸橋,120.21769,23.012845
長榮地下道,120.219365,23.01243
無名地下道(長榮地下道上方),120.21957,23.01271
柴頭港橋(新),120.21674,23.018975
第七號橋(安和路二段),120.1993,23.0348
無名橋(新順橋旁),120.20673,23.04906
無名橋(安中路五段1巷對面),120.160785,23.059305
無名橋(總安路二段旁),120.20875,23.05645
無名橋(舊學東橋),120.14603,23.07552
無名橋(舊長安橋),120.18978,23.06834
無名橋(溪南橋旁),120.16153,23.076105
四草跨海大橋,120.12386,22.99725
保安橋(南147),120.239595,22.92443
鄭仔寮橋,120.239395,23.02246
北辰橋,120.21357,23.019885
二仁溪橋,120.17753,22.91407
海寮東橋,120.1029,23.1177
溪排港橋(新),120.109422,23.030585
大洲一號橋,120.24609,23.061405
南康橋,120.221655,23.018435
無名橋65,120.07599,23.054245
無名橋66,120.0776245,23.0563985
無名橋68,120.074315,23.051955
無名橋J,120.176285,23.036855
無名橋I,120.174685,23.036105
無名橋70,120.165515,23.074965
無名橋C,120.191395,23.06961
無名橋F,120.22231,23.0637
無名橋G,120.227105,23.04892
洲尾橋,120.22955,23.04025
萬安橋,120.113775,23.023245
關山13號橋,120.596485,23.17773
灣裡濱海陸橋,120.176395,22.927735
無名一號橋,120.12409,23.059725
無名二號橋,120.116905,23.01824
無名三號橋,120.11505,23.02045
無名四號橋,120.114055,23.02236
垃圾無名一號橋,120.099245,23.042615
垃圾無名二號橋,120.101105,23.04024
無名七號橋,120.096885,23.035605
無名五號橋,120.108785,23.05304
無名六號橋,120.161655,23.04841
榮順橋,120.22865,23.071295
開元橋,120.226085,23.006345
烏龍水橋,120.38392,22.96392
石梯口橋,120.38569,22.965
崁頭山一號橋-無名橋(9),120.48537,23.26712
無名橋,120.414395,22.93874
第一號橋(無名橋1),120.41413,22.92293
崁頭山二號橋(崁頂山3號橋),120.49042,23.268985
宅子內野溪橋(無名橋2),120.43795,23.255035
第二號橋,120.41392,22.916755
第三號橋,120.41206,22.9162
無名橋(4),120.439185,23.251335
高苓橋,120.315355,22.909595
無名橋(5),120.43904,23.250905
無名橋(3),120.439405,23.25047
無名橋(7),120.43985,23.250055
無名橋,120.49148,23.078495
無名橋1,120.48735,23.05028
竹圍橋,120.479865,23.041825
南化橋,120.477,23.040715
聖媽坑橋,120.45351,23.036245
無名橋(6),120.440225,23.247565
縣界橋,120.60918,23.215805
網寮橋,120.2505,22.9987
新灣橋,120.28227,23.02095
復興橋(新)-無名橋,120.25185,23.04985
無名橋(19),120.252875,23.199585
無名橋(8),120.231485,23.205765
無名橋(12),120.236745,23.205835
無名橋(5),120.22032,23.16303
社子橋(部地橋),120.227835,23.167395
無名橋(3),120.29356,23.278095
無名橋(8),120.17252,23.1707
鎮山橋,120.18784,23.150705
無名橋,120.117145,23.12682
富民橋,120.360215,22.96699
鼻頭橋,120.118865,23.14994
許厝湖橋,120.348125,22.98235
西寮北橋,120.092535,23.17345
西濱雙春三號橋,120.123255,23.303
西濱雙春二號橋,120.1228,23.303055
無名橋(南134),120.250825,23.089535
無名橋(9),120.124475,23.29879
無名橋(南137),120.290915,23.097935
茄芳橋,120.193065,23.27946
下營橋,120.266275,23.22309
無名橋(37),120.351925,23.324965
永吉三號橋,120.13228,23.094225
水龍橋,120.15358,23.103475
塔寮溪橋,120.411875,23.01001
無名橋,120.40667,23.058115
口社橋,120.409,23.05933
無名橋(7),120.169565,23.18234
竹仔坑橋,120.49971,23.36638
竹圍橋,120.477155,23.135045
無名橋(9)(頭前溪橋),120.419075,23.397095
濁水坑橋,120.404845,23.12709
後堀橋,120.370575,23.243675
竹門橋,120.440725,23.37142
道爺橋,120.28905,23.105385
無名橋(13),120.32718,23.24708
無名橋(南149),120.2772,22.93515
康隆橋(六甲橋),120.2775,22.94515
水池子橋-無名橋(27),120.2609,23.23875
無名橋(29),120.28258,23.234155
灣仔橋,120.3384,22.916
無名橋(1),120.30582,23.18302
東角橋,120.25645,23.18455
尖山3號橋,120.4097,23.25165
尖山4號橋,120.408,23.25445
尖山5號橋,120.40695,23.2566
無名橋(7),120.404,23.2587
無名橋(25),120.31215,23.28695
無名橋(7),120.3041,23.33055
中生橋,120.25045,22.90765
第一號橋(原一號橋),120.41224,23.304855
無名橋67,120.078655,23.057635
鹽水溪人行橋-東側,120.19299,23.01931
台江無名一號橋,120.13958,23.06649
北園橋,120.224934,23.01374
龍崗人行陸橋(四鯤鯓海景天橋),120.16821,22.961435
安北無名一號橋,120.154035,22.999575
漁光大橋,120.159165,22.983285
安億橋下河底景觀步道,120.16363,22.998785
成功人行陸橋,120.21682,23.00906
公園88涵洞,120.211025,23.004475
無名橋(安明路)海尾橋,120.16563,23.03225
城西二號橋,120.09577,23.04993
顯宮橋,120.13875,23.05488
義安1號橋,120.097345,23.049055
鹽水溪人行橋-西側,120.192625,23.019135
無名橋(安明路二段),120.161265,23.036945
濱海橋,120.173845,23.0235
無名一號橋(北汕尾路二段),120.120675,23.015795
公園78涵洞,120.21146,23.0044
城西一號橋,120.095625,23.050265
安北無名二號橋,120.154005,22.998825
溪南寮排水橋,120.166735,23.039925
曾文溪橋,120.142685,23.06489
學甲寮橋,120.139885,23.06562
西加橋,120.11643,23.16866
無名橋(9)(浮水橋),120.26336,23.059075
無名橋(1),120.183285,23.16805
無名橋(2),120.15732,23.12415
無名橋(3),120.20489,23.189055
無名橋(4),120.204843,23.188973
無名橋(5),120.20486,23.190555
無名橋(6),120.19487,23.197655
無名橋(7),120.194138,23.197118
營埔橋,120.19418,23.19717
牛稠橋,120.438285,23.25334
斑花橋,120.440005,23.282355
仁耀橋,120.58997,23.159605
關山12號橋,120.591945,23.16529
關山十四號橋,120.60075,23.18783
無名橋(8),120.208345,23.18757
倒芳橋,120.220615,23.242755
大溪新橋,120.35254,22.939403
凹窯橋,120.383636,22.98934
明春橋,120.358072,22.912316
長青橋,120.418648,22.952886
長春橋,120.408896,22.942561
喜春橋,120.411103,22.9446005
楠坑一號橋,120.3656115,22.9379975
觀音山橋,120.381592,22.995665
大昌橋,120.298295,22.996215
北新大橋,120.335835,22.967525
新仁橋,120.33259,22.97033
無名橋(N1-724),120.092435,23.172745
頂角橋-735,120.290125,23.21848
大內橋(原北勢洲橋),120.34725,23.118665
曲溪橋,120.39008,23.10629
箍寮橋,120.16097,23.237715
草林坑橋,120.58767,23.15421
草山一號橋,120.41989,23.01271
南?第二號橋,120.29311,23.205545
牛坑橋,120.5079,23.133695
無名橋(N4-745),120.230765,23.11776
烏山頭橋,120.359925,23.19504
八葛橋,120.345265,23.17436
亞美坑橋(原關山11號橋),120.59258,23.1611
內層林橋,120.4535,23.065315
行泰橋(原崁仔頭橋),120.417415,23.335485
仁諄橋(原仙溪橋),120.47948,23.379925
嘉田橋,120.383075,23.383945
東秀橋,120.331815,23.33636
後菁橋(原無名橋V21-731),120.35932,23.369065
荖葉橋-733,120.39368,23.267835
大安橋(原無名橋16-718),120.338595,22.911385
竹圍橋,120.20162,23.26261
葫蘆埤水圳橋,120.29403,23.192265
蘆芝潭橋,120.500585,23.19998
香梅三號橋(原無名橋N12-715),120.54821,23.1804
溫泉橋,120.525085,23.12857
南189線中正橋,120.215955,23.01918
菩提橋,120.23034,23.006195
北辰橋,120.213625,23.01976
精忠陸橋,120.23413,22.992945
無名橋(鯤鯓路-三號橋),120.18319,22.959055
南寧橋,120.181995,22.93318
走得橋,120.210382,22.979582
和安橋,120.21165,23.05955
第四號橋,120.1297,23.0313
建興橋,120.129525,23.03754
南興橋(新),120.1586,23.07614
青城橋,120.09846,23.06724
城西里七號橋(原無名七號橋),120.096885,23.035605
顯宮橋,120.138804,23.05496
曾文溪橋,120.14301,23.06496
學甲寮橋,120.14,23.06572
安平水景橋(歷史水景公園景觀步道橋),120.15608,22.998515
安平渠道橋,120.15361,22.99794
建新橋,120.181445,22.982335
金華橋(運河星鑽),120.19157,22.993585
無名橋(安平渠道橋旁),120.153605,22.997675
新臨安橋,120.189305,22.996305
總頭橋,120.2116,23.05644
本淵寮一號橋,120.16746,23.03382
無名橋(本淵寮一號橋旁),120.168285,23.03337
無名橋(四草大道),120.132185,23.01491
無名橋(媽祖宮一街),120.12301,23.034645
茄苳坑橋,120.3482866,23.04038705
礁坑橋,120.3493,23.0348
無名橋(V28-730),120.327695,23.328345
無名橋(V29-730),120.324675,23.32905
無名橋(V30-730),120.315085,23.325465
無名橋(V31-730),120.3134,23.327215
無名橋(V36-730),120.309,23.327815
谷溪橋,120.373775,23.025925
無名橋(V23-730),120.34671,23.323135
無名橋(V25-730),120.332425,23.327505
無名橋(V27-730),120.32936,23.32804
無名橋(V37-730),120.308985,23.32797
水蕉橋,120.29753,23.314315
無名橋(V43-730),120.298935,23.32629
無名橋(V45-730),120.280115,23.31336
無名橋(V46-730),120.28361,23.31325
無名橋(V47-730),120.28579,23.312155
復興橋-710,120.25159,23.04986
仁愛橋-710,120.240305,23.046905
冠德橋,120.25655,23.04575
自強橋(原蜈潭橋),120.26826,23.040615
無名橋(N1-710),120.2678,23.035105